{"metadata":{"resultset":{"offset":1,"count":259,"limit":1000}},"results":[{"elevation":516.6,"mindate":"1952-10-01","maxdate":"2016-01-07","latitude":32.8358,"name":"ALPINE, CA US","datacoverage":0.9477,"id":"GHCND:USC00040136","elevationUnit":"METERS","longitude":-116.7774},{"elevation":197.5,"mindate":"1948-07-02","maxdate":"2016-01-07","latitude":34.5591,"name":"AMBOY, CA US","datacoverage":0.1154,"id":"GHCND:USC00040176","elevationUnit":"METERS","longitude":-115.7441},{"elevation":102.1,"mindate":"1989-08-01","maxdate":"2016-01-06","latitude":33.8647,"name":"ANAHEIM, CA US","datacoverage":0.9922,"id":"GHCND:USC00040192","elevationUnit":"METERS","longitude":-117.8425},{"elevation":522.7,"mindate":"1940-01-01","maxdate":"2016-01-07","latitude":38.573,"name":"ANGWIN PAC UNION COL, CA US","datacoverage":0.914,"id":"GHCND:USC00040212","elevationUnit":"METERS","longitude":-122.4405},{"elevation":137.2,"mindate":"2008-08-01","maxdate":"2016-01-07","latitude":35.2111,"name":"ARVIN, CA US","datacoverage":0.9426,"id":"GHCND:USC00040332","elevationUnit":"METERS","longitude":-118.8336},{"elevation":520.6,"mindate":"1927-01-01","maxdate":"2016-01-04","latitude":36.4914,"name":"ASH MOUNTAIN, CA US","datacoverage":0.9821,"id":"GHCND:USC00040343","elevationUnit":"METERS","longitude":-118.8253},{"elevation":393.8,"mindate":"1905-01-01","maxdate":"2016-01-06","latitude":38.9072,"name":"AUBURN, CA US","datacoverage":0.947,"id":"GHCND:USC00040383","elevationUnit":"METERS","longitude":-121.0838},{"elevation":143.3,"mindate":"1999-01-01","maxdate":"2016-01-07","latitude":35.4186,"name":"BAKERSFIELD 5 NW, CA US","datacoverage":0.9482,"id":"GHCND:USC00040444","elevationUnit":"METERS","longitude":-119.0508},{"elevation":528.8,"mindate":"1950-02-01","maxdate":"2016-01-06","latitude":36.9092,"name":"BALCH POWER HOUSE, CA US","datacoverage":0.9665,"id":"GHCND:USC00040449","elevationUnit":"METERS","longitude":-119.0883},{"elevation":676.7,"mindate":"1980-05-01","maxdate":"2016-01-07","latitude":34.8927,"name":"BARSTOW, CA US","datacoverage":0.972,"id":"GHCND:USC00040521","elevationUnit":"METERS","longitude":-117.0219},{"elevation":2058.3,"mindate":"1960-07-01","maxdate":"2016-01-06","latitude":34.243,"name":"BIG BEAR LAKE, CA US","datacoverage":0.9808,"id":"GHCND:USC00040741","elevationUnit":"METERS","longitude":-116.917},{"elevation":61,"mindate":"1915-01-01","maxdate":"2016-01-07","latitude":36.2472,"name":"BIG SUR STATION, CA US","datacoverage":0.9297,"id":"GHCND:USC00040790","elevationUnit":"METERS","longitude":-121.7802},{"elevation":81.7,"mindate":"1913-01-01","maxdate":"2016-01-07","latitude":33.6131,"name":"BLYTHE, CA US","datacoverage":0.936,"id":"GHCND:USC00040924","elevationUnit":"METERS","longitude":-114.5972},{"elevation":1699.3,"mindate":"1906-03-03","maxdate":"2016-01-07","latitude":39.3886,"name":"BOCA, CA US","datacoverage":0.7756,"id":"GHCND:USC00040931","elevationUnit":"METERS","longitude":-120.0936},{"elevation":2551.2,"mindate":"1895-02-01","maxdate":"2016-01-07","latitude":38.2119,"name":"BODIE, CA US","datacoverage":0.4953,"id":"GHCND:USC00040943","elevationUnit":"METERS","longitude":-119.0142},{"elevation":246.9,"mindate":"1942-07-01","maxdate":"2016-01-07","latitude":33.2559,"name":"BORREGO DESERT PARK, CA US","datacoverage":0.9328,"id":"GHCND:USC00040983","elevationUnit":"METERS","longitude":-116.4036},{"elevation":1972.1,"mindate":"1903-10-01","maxdate":"2016-01-07","latitude":38.2575,"name":"BRIDGEPORT, CA US","datacoverage":0.6909,"id":"GHCND:USC00041072","elevationUnit":"METERS","longitude":-119.2286},{"elevation":1085.1,"mindate":"1937-12-01","maxdate":"2016-01-07","latitude":39.6949,"name":"BRUSH CREEK RANGER STATION, CA US","datacoverage":0.6931,"id":"GHCND:USC00041130","elevationUnit":"METERS","longitude":-121.3452},{"elevation":199.6,"mindate":"1939-12-01","maxdate":"2016-01-07","latitude":34.1866,"name":"BURBANK VALLEY PUMP, CA US","datacoverage":0.9861,"id":"GHCND:USC00041194","elevationUnit":"METERS","longitude":-118.348},{"elevation":68.6,"mindate":"1940-01-01","maxdate":"2016-01-07","latitude":35.4028,"name":"BUTTONWILLOW, CA US","datacoverage":0.9848,"id":"GHCND:USC00041244","elevationUnit":"METERS","longitude":-119.47},{"elevation":242.3,"mindate":"1952-03-01","maxdate":"2016-01-07","latitude":34.5822,"name":"CACHUMA LAKE, CA US","datacoverage":0.9828,"id":"GHCND:USC00041253","elevationUnit":"METERS","longitude":-119.9817},{"elevation":801.6,"mindate":"1948-07-01","maxdate":"2016-01-06","latitude":32.6263,"name":"CAMPO, CA US","datacoverage":0.9743,"id":"GHCND:USC00041424","elevationUnit":"METERS","longitude":-116.4699},{"elevation":1428.9,"mindate":"1894-05-01","maxdate":"2016-01-05","latitude":41.5305,"name":"CEDARVILLE, CA US","datacoverage":0.9451,"id":"GHCND:USC00041614","elevationUnit":"METERS","longitude":-120.1804},{"elevation":1380.7,"mindate":"1909-10-01","maxdate":"2016-01-06","latitude":40.3033,"name":"CHESTER, CA US","datacoverage":0.9197,"id":"GHCND:USC00041700","elevationUnit":"METERS","longitude":-121.2422},{"elevation":520,"mindate":"2008-03-01","maxdate":"2016-01-07","latitude":33.6617,"name":"CHIRIACO SUMMIT, CA US","datacoverage":0.9944,"id":"GHCND:USC00041738","elevationUnit":"METERS","longitude":-115.7206},{"elevation":411.2,"mindate":"1954-10-26","maxdate":"2016-01-06","latitude":38.9238,"name":"CLEARLAKE 4 SE, CA US","datacoverage":0.8878,"id":"GHCND:USC00041806","elevationUnit":"METERS","longitude":-122.5672},{"elevation":204.2,"mindate":"1942-01-02","maxdate":"2016-01-06","latitude":36.1356,"name":"COALINGA, CA US","datacoverage":0.9722,"id":"GHCND:USC00041864","elevationUnit":"METERS","longitude":-120.3606},{"elevation":128,"mindate":"1943-11-01","maxdate":"2016-01-05","latitude":40.4,"name":"COLEMAN FISHERIES, CA US","datacoverage":0.9754,"id":"GHCND:USC00041907","elevationUnit":"METERS","longitude":-122.1433},{"elevation":12.2,"mindate":"1991-09-01","maxdate":"2016-01-06","latitude":37.9833,"name":"CONCORD WASTEWATER PLANT, CA US","datacoverage":0.9913,"id":"GHCND:USC00041967","elevationUnit":"METERS","longitude":-122.0692},{"elevation":823.9,"mindate":"1959-05-01","maxdate":"2016-01-06","latitude":41.9797,"name":"COPCO NUMBER 1 DAM, CA US","datacoverage":0.9957,"id":"GHCND:USC00041990","elevationUnit":"METERS","longitude":-122.3378},{"elevation":61,"mindate":"1948-07-01","maxdate":"2016-01-06","latitude":36.0975,"name":"CORCORAN IRRIGATION DIST., CA US","datacoverage":0.9924,"id":"GHCND:USC00042012","elevationUnit":"METERS","longitude":-119.5817},{"elevation":28,"mindate":"1935-01-01","maxdate":"2016-01-06","latitude":34.005,"name":"CULVER CITY, CA US","datacoverage":0.9413,"id":"GHCND:USC00042214","elevationUnit":"METERS","longitude":-118.4139},{"elevation":18.3,"mindate":"1893-01-01","maxdate":"2016-01-07","latitude":38.5349,"name":"DAVIS 2 WSW EXPERIMENTAL FARM, CA US","datacoverage":0.9099,"id":"GHCND:USC00042294","elevationUnit":"METERS","longitude":-121.7761},{"elevation":-59.1,"mindate":"1961-04-26","maxdate":"2016-01-07","latitude":36.4622,"name":"DEATH VALLEY, CA US","datacoverage":0.9981,"id":"GHCND:USC00042319","elevationUnit":"METERS","longitude":-116.8669},{"elevation":92,"mindate":"1906-03-01","maxdate":"2016-01-06","latitude":35.7683,"name":"DELANO, CA US","datacoverage":0.6951,"id":"GHCND:USC00042346","elevationUnit":"METERS","longitude":-119.26},{"elevation":826,"mindate":"1906-03-01","maxdate":"2016-01-07","latitude":39.8716,"name":"DE SABLA, CA US","datacoverage":0.9673,"id":"GHCND:USC00042402","elevationUnit":"METERS","longitude":-121.6108},{"elevation":227.7,"mindate":"2004-02-01","maxdate":"2016-01-07","latitude":33.7377,"name":"DESERT CENTER 2 NNE, CA US","datacoverage":0.6944,"id":"GHCND:USC00042410","elevationUnit":"METERS","longitude":-115.3925},{"elevation":296.6,"mindate":"1933-09-01","maxdate":"2016-01-07","latitude":33.8089,"name":"EAGLE MOUNTAIN, CA US","datacoverage":0.9888,"id":"GHCND:USC00042598","elevationUnit":"METERS","longitude":-115.4508},{"elevation":150.9,"mindate":"1979-11-01","maxdate":"2016-01-06","latitude":32.8005,"name":"EL CAJON, CA US","datacoverage":0.9381,"id":"GHCND:USC00042706","elevationUnit":"METERS","longitude":-116.928},{"elevation":-9.1,"mindate":"1932-03-01","maxdate":"2016-01-07","latitude":32.7669,"name":"EL CENTRO 2 SSW, CA US","datacoverage":0.9922,"id":"GHCND:USC00042713","elevationUnit":"METERS","longitude":-115.5617},{"elevation":520.6,"mindate":"1938-02-18","maxdate":"2016-01-07","latitude":41.988,"name":"ELK VALLEY, CA US","datacoverage":0.596,"id":"GHCND:USC00042749","elevationUnit":"METERS","longitude":-123.7183},{"elevation":182.9,"mindate":"1979-05-01","maxdate":"2016-01-07","latitude":33.121,"name":"ESCONDIDO NUMBER 2, CA US","datacoverage":0.9185,"id":"GHCND:USC00042863","elevationUnit":"METERS","longitude":-117.09},{"elevation":86.9,"mindate":"1942-12-01","maxdate":"2016-01-03","latitude":36.3642,"name":"FIVE POINTS 5 SSW, CA US","datacoverage":0.8947,"id":"GHCND:USC00043083","elevationUnit":"METERS","longitude":-120.1561},{"elevation":919,"mindate":"1937-12-01","maxdate":"2016-01-07","latitude":39.01,"name":"FORESTHILL RANGER STATION, CA US","datacoverage":0.9292,"id":"GHCND:USC00043134","elevationUnit":"METERS","longitude":-120.8455},{"elevation":37.5,"mindate":"1895-05-01","maxdate":"2016-01-06","latitude":39.5091,"name":"FORT BRAGG 5 N, CA US","datacoverage":0.7926,"id":"GHCND:USC00043161","elevationUnit":"METERS","longitude":-123.7566},{"elevation":830.6,"mindate":"1936-01-09","maxdate":"2016-01-07","latitude":41.6,"name":"FORT JONES RNG STATION, CA US","datacoverage":0.8919,"id":"GHCND:USC00043182","elevationUnit":"METERS","longitude":-122.8478},{"elevation":11.6,"mindate":"1996-06-01","maxdate":"2016-01-07","latitude":37.5422,"name":"FREMONT, CA US","datacoverage":0.9706,"id":"GHCND:USC00043244","elevationUnit":"METERS","longitude":-122.0158},{"elevation":103,"mindate":"1999-01-01","maxdate":"2016-01-07","latitude":36.7672,"name":"FRESNO 5 NE, CA US","datacoverage":0.9606,"id":"GHCND:USC00043256","elevationUnit":"METERS","longitude":-119.7092},{"elevation":125,"mindate":"1912-08-01","maxdate":"2016-01-07","latitude":36.9969,"name":"FRIANT GOVERNMENT CAMP, CA US","datacoverage":0.8744,"id":"GHCND:USC00043261","elevationUnit":"METERS","longitude":-119.7072},{"elevation":118,"mindate":"1948-07-01","maxdate":"2016-01-07","latitude":41.8452,"name":"GASQUET RANGER STATION, CA US","datacoverage":0.9562,"id":"GHCND:USC00043357","elevationUnit":"METERS","longitude":-123.9647},{"elevation":914.7,"mindate":"1946-11-01","maxdate":"2016-01-07","latitude":38.933,"name":"GEORGETOWN R S, CA US","datacoverage":0.9177,"id":"GHCND:USC00043384","elevationUnit":"METERS","longitude":-120.8008},{"elevation":957.1,"mindate":"1951-06-18","maxdate":"2016-01-07","latitude":35.7269,"name":"GLENNVILLE, CA US","datacoverage":0.9756,"id":"GHCND:USC00043463","elevationUnit":"METERS","longitude":-118.7006},{"elevation":1011.9,"mindate":"1905-01-01","maxdate":"2016-01-06","latitude":39.165,"name":"GOLD RUN 2 SW, CA US","datacoverage":0.772,"id":"GHCND:USC00043491","elevationUnit":"METERS","longitude":-120.8566},{"elevation":2011.7,"mindate":"1940-07-01","maxdate":"2016-01-06","latitude":36.7394,"name":"GRANT GROVE, CA US","datacoverage":0.9776,"id":"GHCND:USC00043551","elevationUnit":"METERS","longitude":-118.9631},{"elevation":731.5,"mindate":"1966-10-01","maxdate":"2016-01-07","latitude":39.2041,"name":"GRASS VALLEY NUMBER 2, CA US","datacoverage":0.9964,"id":"GHCND:USC00043573","elevationUnit":"METERS","longitude":-121.068},{"elevation":853.4,"mindate":"1948-07-01","maxdate":"2016-01-06","latitude":37.8444,"name":"GROVELAND 2, CA US","datacoverage":0.2708,"id":"GHCND:USC00043669","elevationUnit":"METERS","longitude":-120.2258},{"elevation":8.2,"mindate":"1939-07-01","maxdate":"2016-01-07","latitude":37.4725,"name":"HALF MOON BAY, CA US","datacoverage":0.9578,"id":"GHCND:USC00043714","elevationUnit":"METERS","longitude":-122.44333},{"elevation":72.2,"mindate":"1899-07-01","maxdate":"2016-01-07","latitude":36.3158,"name":"HANFORD 1 S, CA US","datacoverage":0.9318,"id":"GHCND:USC00043747","elevationUnit":"METERS","longitude":-119.637},{"elevation":417.6,"mindate":"1933-07-01","maxdate":"2016-01-05","latitude":33.7044,"name":"HAYFIELD PUMP PLANT, CA US","datacoverage":0.9903,"id":"GHCND:USC00043855","elevationUnit":"METERS","longitude":-115.6289},{"elevation":465.1,"mindate":"1999-12-01","maxdate":"2016-01-06","latitude":35.6841,"name":"HEARST CASTLE, CA US","datacoverage":0.9818,"id":"GHCND:USC00043882","elevationUnit":"METERS","longitude":-121.1683},{"elevation":823,"mindate":"1942-09-01","maxdate":"2016-01-07","latitude":33.2372,"name":"HENSHAW DAM, CA US","datacoverage":0.9822,"id":"GHCND:USC00043914","elevationUnit":"METERS","longitude":-116.7614},{"elevation":113.7,"mindate":"1959-11-01","maxdate":"2016-01-07","latitude":40.2375,"name":"HONEYDEW 1 SW, CA US","datacoverage":0.4098,"id":"GHCND:USC00044074","elevationUnit":"METERS","longitude":-124.1322},{"elevation":1639.8,"mindate":"1943-10-01","maxdate":"2016-01-06","latitude":33.7572,"name":"IDYLLWILD FIRE DEPARTMENT, CA US","datacoverage":0.9755,"id":"GHCND:USC00044211","elevationUnit":"METERS","longitude":-116.7066},{"elevation":-6.4,"mindate":"1894-03-01","maxdate":"2016-01-07","latitude":33.7086,"name":"INDIO FIRE STATION, CA US","datacoverage":0.8251,"id":"GHCND:USC00044259","elevationUnit":"METERS","longitude":-116.2152},{"elevation":281,"mindate":"1935-01-01","maxdate":"2016-01-07","latitude":34.1472,"name":"IRON MOUNTAIN, CA US","datacoverage":0.9904,"id":"GHCND:USC00044297","elevationUnit":"METERS","longitude":-115.1219},{"elevation":1645.9,"mindate":"1948-08-01","maxdate":"2016-01-06","latitude":41.2683,"name":"JESS VALLEY, CA US","datacoverage":0.9791,"id":"GHCND:USC00044374","elevationUnit":"METERS","longitude":-120.2947},{"elevation":965.3,"mindate":"2008-10-01","maxdate":"2016-01-07","latitude":34.3591,"name":"JOHNSON VALLEY, CA US","datacoverage":0.9714,"id":"GHCND:USC00044394","elevationUnit":"METERS","longitude":-116.5378},{"elevation":781.2,"mindate":"1959-06-01","maxdate":"2016-01-07","latitude":34.14694,"name":"JOSHUA TREE, CA US","datacoverage":0.3814,"id":"GHCND:USC00044405","elevationUnit":"METERS","longitude":-116.27472},{"elevation":1284.7,"mindate":"1893-01-01","maxdate":"2016-01-07","latitude":33.0763,"name":"JULIAN CDF, CA US","datacoverage":0.3772,"id":"GHCND:USC00044412","elevationUnit":"METERS","longitude":-116.5925},{"elevation":44.2,"mindate":"1902-01-01","maxdate":"2016-01-07","latitude":37.9566,"name":"KENTFIELD, CA US","datacoverage":0.9634,"id":"GHCND:USC00044500","elevationUnit":"METERS","longitude":-122.5447},{"elevation":73.2,"mindate":"1955-02-01","maxdate":"2016-01-07","latitude":36.0067,"name":"KETTLEMAN CITY, CA US","datacoverage":0.5382,"id":"GHCND:USC00044534","elevationUnit":"METERS","longitude":-119.96},{"elevation":57,"mindate":"1975-08-01","maxdate":"2016-01-07","latitude":38.492,"name":"LAKE SOLANO, CA US","datacoverage":0.986,"id":"GHCND:USC00044712","elevationUnit":"METERS","longitude":-122.0039},{"elevation":1092.7,"mindate":"1948-07-01","maxdate":"2016-01-06","latitude":34.8328,"name":"LEBEC, CA US","datacoverage":0.9484,"id":"GHCND:USC00044863","elevationUnit":"METERS","longitude":-118.865},{"elevation":2071.7,"mindate":"1988-05-01","maxdate":"2016-01-07","latitude":37.9567,"name":"LEE VINING, CA US","datacoverage":0.9736,"id":"GHCND:USC00044881","elevationUnit":"METERS","longitude":-119.1194},{"elevation":156.4,"mindate":"1899-01-01","maxdate":"2016-01-07","latitude":36.3817,"name":"LEMON COVE, CA US","datacoverage":0.976,"id":"GHCND:USC00044890","elevationUnit":"METERS","longitude":-119.0264},{"elevation":132.6,"mindate":"1913-12-01","maxdate":"2016-01-07","latitude":36.2032,"name":"LINDSAY, CA US","datacoverage":0.9816,"id":"GHCND:USC00044957","elevationUnit":"METERS","longitude":-119.0545},{"elevation":2052.8,"mindate":"1968-11-01","maxdate":"2016-01-07","latitude":36.6044,"name":"LODGEPOLE, CA US","datacoverage":0.9824,"id":"GHCND:USC00045026","elevationUnit":"METERS","longitude":-118.7325},{"elevation":22.9,"mindate":"1917-03-01","maxdate":"2016-01-06","latitude":34.6538,"name":"LOMPOC, CA US","datacoverage":0.6864,"id":"GHCND:USC00045064","elevationUnit":"METERS","longitude":-120.4513},{"elevation":36.6,"mindate":"1906-03-01","maxdate":"2016-01-07","latitude":37.0563,"name":"LOS BANOS, CA US","datacoverage":0.8764,"id":"GHCND:USC00045118","elevationUnit":"METERS","longitude":-120.8666},{"elevation":111.3,"mindate":"1893-01-01","maxdate":"2016-01-05","latitude":37.2319,"name":"LOS GATOS, CA US","datacoverage":0.9794,"id":"GHCND:USC00045123","elevationUnit":"METERS","longitude":-121.9592},{"elevation":2378.7,"mindate":"1993-12-01","maxdate":"2016-01-07","latitude":37.6478,"name":"MAMMOTH LAKES RANGER STATION, CA US","datacoverage":0.9615,"id":"GHCND:USC00045280","elevationUnit":"METERS","longitude":-118.9617},{"elevation":1752.6,"mindate":"1949-01-01","maxdate":"2016-01-06","latitude":40.54111,"name":"MANZANITA LAKE, CA US","datacoverage":0.9625,"id":"GHCND:USC00045311","elevationUnit":"METERS","longitude":-121.57667},{"elevation":146.3,"mindate":"1970-03-01","maxdate":"2016-01-05","latitude":38.4916,"name":"MARKLEY COVE, CA US","datacoverage":0.9924,"id":"GHCND:USC00045360","elevationUnit":"METERS","longitude":-122.1241},{"elevation":999.7,"mindate":"1909-10-01","maxdate":"2016-01-06","latitude":41.2514,"name":"MC CLOUD, CA US","datacoverage":0.9483,"id":"GHCND:USC00045449","elevationUnit":"METERS","longitude":-122.1383},{"elevation":46.6,"mindate":"1899-06-01","maxdate":"2016-01-05","latitude":37.2858,"name":"MERCED, CA US","datacoverage":0.9522,"id":"GHCND:USC00045532","elevationUnit":"METERS","longitude":-120.5117},{"elevation":833.6,"mindate":"1904-01-01","maxdate":"2016-01-04","latitude":35.0492,"name":"MOJAVE, CA US","datacoverage":0.6739,"id":"GHCND:USC00045756","elevationUnit":"METERS","longitude":-118.1619},{"elevation":37.2,"mindate":"1995-07-01","maxdate":"2016-01-06","latitude":36.5927,"name":"MONTEREY NWSFO, CA US","datacoverage":0.9917,"id":"GHCND:USC00045802","elevationUnit":"METERS","longitude":-121.8555},{"elevation":958.6,"mindate":"2009-02-01","maxdate":"2016-01-06","latitude":34.08639,"name":"MORONGO VALLEY NORTH, CA US","datacoverage":1,"id":"GHCND:USC00045860","elevationUnit":"METERS","longitude":-116.56222},{"elevation":661.4,"mindate":"1952-04-01","maxdate":"2016-01-03","latitude":37.8792,"name":"MOUNT DIABLO JUNCTION, CA US","datacoverage":0.9875,"id":"GHCND:USC00045915","elevationUnit":"METERS","longitude":-121.9303},{"elevation":1282,"mindate":"1948-07-01","maxdate":"2016-01-01","latitude":37.3436,"name":"MOUNT HAMILTON, CA US","datacoverage":0.9738,"id":"GHCND:USC00045933","elevationUnit":"METERS","longitude":-121.6425},{"elevation":1804.4,"mindate":"2003-11-01","maxdate":"2016-01-06","latitude":32.8672,"name":"MOUNT LAGUNA NUMBER 3, CA US","datacoverage":0.8912,"id":"GHCND:USC00045968","elevationUnit":"METERS","longitude":-116.4194},{"elevation":1094.2,"mindate":"1948-04-15","maxdate":"2016-01-06","latitude":41.3206,"name":"MOUNT SHASTA, CA US","datacoverage":0.966,"id":"GHCND:USC00045983","elevationUnit":"METERS","longitude":-122.3081},{"elevation":1740.4,"mindate":"1948-07-01","maxdate":"2016-01-07","latitude":34.2308,"name":"MOUNT WILSON CBS, CA US","datacoverage":0.9748,"id":"GHCND:USC00046006","elevationUnit":"METERS","longitude":-118.0711},{"elevation":10.7,"mindate":"1893-01-01","maxdate":"2016-01-07","latitude":38.2777,"name":"NAPA STATE HOSPITAL, CA US","datacoverage":0.942,"id":"GHCND:USC00046074","elevationUnit":"METERS","longitude":-122.2647},{"elevation":847.6,"mindate":"1893-02-01","maxdate":"2016-01-07","latitude":39.2466,"name":"NEVADA CITY, CA US","datacoverage":0.9856,"id":"GHCND:USC00046136","elevationUnit":"METERS","longitude":-121.0008},{"elevation":658.4,"mindate":"1974-01-01","maxdate":"2016-01-07","latitude":34.9455,"name":"NEW CUYAMA FIRE STATION, CA US","datacoverage":0.9357,"id":"GHCND:USC00046154","elevationUnit":"METERS","longitude":-119.6827},{"elevation":292.6,"mindate":"1992-03-01","maxdate":"2016-01-07","latitude":38.0047,"name":"NEW MELONES DAM HQ, CA US","datacoverage":0.9928,"id":"GHCND:USC00046174","elevationUnit":"METERS","longitude":-120.4863},{"elevation":806.2,"mindate":"1904-03-01","maxdate":"2016-01-07","latitude":37.2329,"name":"NORTH FORK RANGER STATION, CA US","datacoverage":0.8913,"id":"GHCND:USC00046252","elevationUnit":"METERS","longitude":-119.5097},{"elevation":603.5,"mindate":"1943-11-01","maxdate":"2016-01-07","latitude":41.8391,"name":"OAK KNOLL, CA US","datacoverage":0.6074,"id":"GHCND:USC00046328","elevationUnit":"METERS","longitude":-122.8502},{"elevation":9.1,"mindate":"1970-10-01","maxdate":"2016-01-06","latitude":37.79833,"name":"OAKLAND MUSEUM, CA US","datacoverage":0.956,"id":"GHCND:USC00046336","elevationUnit":"METERS","longitude":-122.26417},{"elevation":263.7,"mindate":"1943-05-01","maxdate":"2016-01-05","latitude":38.3858,"name":"OCCIDENTAL, CA US","datacoverage":0.9305,"id":"GHCND:USC00046370","elevationUnit":"METERS","longitude":-122.9661},{"elevation":227.1,"mindate":"1905-05-01","maxdate":"2016-01-07","latitude":34.4477,"name":"OJAI, CA US","datacoverage":0.9766,"id":"GHCND:USC00046399","elevationUnit":"METERS","longitude":-119.2275},{"elevation":77.4,"mindate":"1903-03-01","maxdate":"2016-01-07","latitude":39.7458,"name":"ORLAND, CA US","datacoverage":0.9771,"id":"GHCND:USC00046506","elevationUnit":"METERS","longitude":-122.1997},{"elevation":122.8,"mindate":"1903-04-01","maxdate":"2016-01-05","latitude":41.3088,"name":"ORLEANS, CA US","datacoverage":0.9769,"id":"GHCND:USC00046508","elevationUnit":"METERS","longitude":-123.5316},{"elevation":15.8,"mindate":"1998-05-01","maxdate":"2016-01-06","latitude":34.2066,"name":"OXNARD WEATHER FORECAST OFFICE, CA US","datacoverage":0.994,"id":"GHCND:USC00046572","elevationUnit":"METERS","longitude":-119.1375},{"elevation":796.1,"mindate":"1903-01-01","maxdate":"2016-01-06","latitude":34.5883,"name":"PALMDALE, CA US","datacoverage":0.815,"id":"GHCND:USC00046624","elevationUnit":"METERS","longitude":-118.0938},{"elevation":129.5,"mindate":"1906-03-01","maxdate":"2016-01-07","latitude":33.8275,"name":"PALM SPRINGS, CA US","datacoverage":0.9097,"id":"GHCND:USC00046635","elevationUnit":"METERS","longitude":-116.5097},{"elevation":7.6,"mindate":"1953-09-01","maxdate":"2016-01-07","latitude":37.4436,"name":"PALO ALTO, CA US","datacoverage":0.9503,"id":"GHCND:USC00046646","elevationUnit":"METERS","longitude":-122.1402},{"elevation":1691.6,"mindate":"1901-01-05","maxdate":"2016-01-06","latitude":33.378,"name":"PALOMAR MOUNTAIN OBSVTRY, CA US","datacoverage":0.6483,"id":"GHCND:USC00046657","elevationUnit":"METERS","longitude":-116.84},{"elevation":533.4,"mindate":"1957-05-01","maxdate":"2016-01-07","latitude":39.7538,"name":"PARADISE, CA US","datacoverage":0.9842,"id":"GHCND:USC00046685","elevationUnit":"METERS","longitude":-121.6241},{"elevation":224.9,"mindate":"1934-01-01","maxdate":"2016-01-05","latitude":34.2903,"name":"PARKER RESERVOIR, CA US","datacoverage":0.9161,"id":"GHCND:USC00046699","elevationUnit":"METERS","longitude":-114.1708},{"elevation":263.3,"mindate":"1893-01-01","maxdate":"2016-01-07","latitude":34.1483,"name":"PASADENA, CA US","datacoverage":0.8846,"id":"GHCND:USC00046719","elevationUnit":"METERS","longitude":-118.1447},{"elevation":222.5,"mindate":"1894-01-01","maxdate":"2016-01-07","latitude":35.6277,"name":"PASO ROBLES, CA US","datacoverage":0.9432,"id":"GHCND:USC00046730","elevationUnit":"METERS","longitude":-120.6855},{"elevation":398.4,"mindate":"1937-01-01","maxdate":"2016-01-06","latitude":36.4819,"name":"PINNACLES NATIONAL MONUMENT, CA US","datacoverage":0.9532,"id":"GHCND:USC00046926","elevationUnit":"METERS","longitude":-121.1822},{"elevation":217,"mindate":"1959-06-01","maxdate":"2016-01-06","latitude":34.4061,"name":"PIRU 2 ESE, CA US","datacoverage":0.9325,"id":"GHCND:USC00046940","elevationUnit":"METERS","longitude":-118.7569},{"elevation":444.4,"mindate":"1945-01-01","maxdate":"2016-01-07","latitude":40.9869,"name":"PIT RIVER POWER HOUSE 5, CA US","datacoverage":0.9896,"id":"GHCND:USC00046946","elevationUnit":"METERS","longitude":-121.9772},{"elevation":1478.3,"mindate":"1915-01-01","maxdate":"2016-01-07","latitude":39.8053,"name":"PORTOLA, CA US","datacoverage":0.9404,"id":"GHCND:USC00047085","elevationUnit":"METERS","longitude":-120.4719},{"elevation":310.3,"mindate":"1937-09-01","maxdate":"2016-01-06","latitude":39.3619,"name":"POTTER VALLEY POWERHOUSE, CA US","datacoverage":0.9732,"id":"GHCND:USC00047109","elevationUnit":"METERS","longitude":-123.1286},{"elevation":1042.4,"mindate":"1895-04-01","maxdate":"2016-01-07","latitude":39.9366,"name":"QUINCY, CA US","datacoverage":0.8934,"id":"GHCND:USC00047195","elevationUnit":"METERS","longitude":-120.9475},{"elevation":1088.1,"mindate":"1937-09-01","maxdate":"2016-01-07","latitude":35.3692,"name":"RANDSBURG, CA US","datacoverage":0.9736,"id":"GHCND:USC00047253","elevationUnit":"METERS","longitude":-117.6525},{"elevation":401.7,"mindate":"1898-04-01","maxdate":"2016-01-06","latitude":34.0528,"name":"REDLANDS, CA US","datacoverage":0.9795,"id":"GHCND:USC00047306","elevationUnit":"METERS","longitude":-117.1894},{"elevation":9.4,"mindate":"1906-04-01","maxdate":"2016-01-07","latitude":37.4767,"name":"REDWOOD CITY, CA US","datacoverage":0.799,"id":"GHCND:USC00047339","elevationUnit":"METERS","longitude":-122.2386},{"elevation":542.5,"mindate":"1948-07-01","maxdate":"2016-01-07","latitude":38.493,"name":"SAINT HELENA 4 WSW, CA US","datacoverage":0.2156,"id":"GHCND:USC00047646","elevationUnit":"METERS","longitude":-122.5383},{"elevation":13.7,"mindate":"1958-05-01","maxdate":"2016-01-06","latitude":36.6594,"name":"SALINAS, CA US","datacoverage":0.977,"id":"GHCND:USC00047668","elevationUnit":"METERS","longitude":-121.6663},{"elevation":226.8,"mindate":"1917-01-01","maxdate":"2016-01-07","latitude":34.1553,"name":"SAN GABRIEL CANYON PH, CA US","datacoverage":0.955,"id":"GHCND:USC00047776","elevationUnit":"METERS","longitude":-117.9078},{"elevation":137.2,"mindate":"1939-05-01","maxdate":"2016-01-07","latitude":34.1061,"name":"SAN GABRIEL FIRE DEP, CA US","datacoverage":0.9552,"id":"GHCND:USC00047785","elevationUnit":"METERS","longitude":-118.1},{"elevation":93.9,"mindate":"1893-02-01","maxdate":"2016-01-06","latitude":35.3056,"name":"SAN LUIS OBISPO POLY, CA US","datacoverage":0.7441,"id":"GHCND:USC00047851","elevationUnit":"METERS","longitude":-120.6619},{"elevation":36.6,"mindate":"1894-01-01","maxdate":"2016-01-07","latitude":37.99833,"name":"SAN RAFAEL CIVIC CEN, CA US","datacoverage":0.5413,"id":"GHCND:USC00047880","elevationUnit":"METERS","longitude":-122.53722},{"elevation":41.1,"mindate":"1906-04-01","maxdate":"2016-01-06","latitude":33.7442,"name":"SANTA ANA FIRE STATION, CA US","datacoverage":0.8914,"id":"GHCND:USC00047888","elevationUnit":"METERS","longitude":-117.8667},{"elevation":1.5,"mindate":"1893-01-01","maxdate":"2016-01-06","latitude":34.4167,"name":"SANTA BARBARA, CA US","datacoverage":0.9644,"id":"GHCND:USC00047902","elevationUnit":"METERS","longitude":-119.6844},{"elevation":39.6,"mindate":"1893-01-01","maxdate":"2016-01-06","latitude":36.9905,"name":"SANTA CRUZ, CA US","datacoverage":0.9905,"id":"GHCND:USC00047916","elevationUnit":"METERS","longitude":-121.9911},{"elevation":349.9,"mindate":"1942-12-01","maxdate":"2016-01-07","latitude":35.3741,"name":"SANTA MARGARITA BOOST, CA US","datacoverage":0.9247,"id":"GHCND:USC00047933","elevationUnit":"METERS","longitude":-120.6375},{"elevation":636.7,"mindate":"1918-07-01","maxdate":"2016-01-03","latitude":34.5894,"name":"SAUGUS POWER PLANT 1, CA US","datacoverage":0.9223,"id":"GHCND:USC00048014","elevationUnit":"METERS","longitude":-118.4547},{"elevation":661.1,"mindate":"1931-03-12","maxdate":"2016-01-07","latitude":41.3011,"name":"SAWYERS BAR RANGER STATION, CA US","datacoverage":0.6627,"id":"GHCND:USC00048025","elevationUnit":"METERS","longitude":-123.133},{"elevation":41.5,"mindate":"1926-01-01","maxdate":"2016-01-04","latitude":40.48306,"name":"SCOTIA, CA US","datacoverage":0.9916,"id":"GHCND:USC00048045","elevationUnit":"METERS","longitude":-124.10361},{"elevation":123.1,"mindate":"2009-08-01","maxdate":"2016-01-06","latitude":35.4867,"name":"SHAFTER 6 E, CA US","datacoverage":0.9979,"id":"GHCND:USC00048122","elevationUnit":"METERS","longitude":-119.1458},{"elevation":327.7,"mindate":"1943-01-01","maxdate":"2016-01-07","latitude":40.7141,"name":"SHASTA DAM, CA US","datacoverage":0.9935,"id":"GHCND:USC00048135","elevationUnit":"METERS","longitude":-122.4161},{"elevation":1516.4,"mindate":"1909-11-01","maxdate":"2016-01-07","latitude":39.5833,"name":"SIERRAVILLE R S, CA US","datacoverage":0.8987,"id":"GHCND:USC00048218","elevationUnit":"METERS","longitude":-120.3705},{"elevation":691.9,"mindate":"1995-07-01","maxdate":"2016-01-06","latitude":37.3133,"name":"SKYLINE RIDGE, CA US","datacoverage":0.9585,"id":"GHCND:USC00048273","elevationUnit":"METERS","longitude":-122.185},{"elevation":510.5,"mindate":"1903-12-01","maxdate":"2016-01-07","latitude":37.9672,"name":"SONORA, CA US","datacoverage":0.8828,"id":"GHCND:USC00048353","elevationUnit":"METERS","longitude":-120.3872},{"elevation":1538.3,"mindate":"1941-07-01","maxdate":"2016-01-03","latitude":37.5122,"name":"SO ENTRANCE YOSEMITE N.P., CA US","datacoverage":0.9462,"id":"GHCND:USC00048380","elevationUnit":"METERS","longitude":-119.6331},{"elevation":243.8,"mindate":"1926-11-01","maxdate":"2016-01-07","latitude":39.5861,"name":"STONY GORGE RESERVOIR, CA US","datacoverage":0.9853,"id":"GHCND:USC00048587","elevationUnit":"METERS","longitude":-122.5341},{"elevation":1160.7,"mindate":"1948-11-01","maxdate":"2016-01-05","latitude":39.563,"name":"STRAWBERRY VALLEY, CA US","datacoverage":0.9898,"id":"GHCND:USC00048606","elevationUnit":"METERS","longitude":-121.1077},{"elevation":1283.8,"mindate":"1893-01-01","maxdate":"2016-01-05","latitude":40.4167,"name":"SUSANVILLE MUNICIPAL AIRPORT, CA US","datacoverage":0.831,"id":"GHCND:USC00048702","elevationUnit":"METERS","longitude":-120.6631},{"elevation":483.4,"mindate":"1943-10-01","maxdate":"2016-01-07","latitude":38.3772,"name":"SUTTER HILL CDF, CA US","datacoverage":0.6738,"id":"GHCND:USC00048713","elevationUnit":"METERS","longitude":-120.8008},{"elevation":1898.9,"mindate":"1903-09-13","maxdate":"2016-01-05","latitude":39.1678,"name":"TAHOE CITY, CA US","datacoverage":0.9415,"id":"GHCND:USC00048758","elevationUnit":"METERS","longitude":-120.1428},{"elevation":1286.3,"mindate":"1997-08-01","maxdate":"2016-01-07","latitude":35.1011,"name":"TEHACHAPI 4 SE, CA US","datacoverage":0.8718,"id":"GHCND:USC00048829","elevationUnit":"METERS","longitude":-118.4222},{"elevation":434.3,"mindate":"1895-01-01","maxdate":"2016-01-05","latitude":35.0233,"name":"TEJON RANCHO, CA US","datacoverage":0.8222,"id":"GHCND:USC00048839","elevationUnit":"METERS","longitude":-118.7497},{"elevation":347.5,"mindate":"1948-07-01","maxdate":"2016-01-06","latitude":36.465,"name":"THREE RIVER EDISON PH 1, CA US","datacoverage":0.6825,"id":"GHCND:USC00048917","elevationUnit":"METERS","longitude":-118.8619},{"elevation":18.6,"mindate":"1955-02-01","maxdate":"2016-01-06","latitude":37.7967,"name":"TRACY PUMPING PLANT, CA US","datacoverage":0.9839,"id":"GHCND:USC00049001","elevationUnit":"METERS","longitude":-121.5828},{"elevation":567.2,"mindate":"1974-08-01","maxdate":"2016-01-05","latitude":40.7263,"name":"TRINITY RIVER HATCHERY, CA US","datacoverage":0.9874,"id":"GHCND:USC00049026","elevationUnit":"METERS","longitude":-122.7947},{"elevation":516.6,"mindate":"1920-01-01","maxdate":"2016-01-07","latitude":35.7636,"name":"TRONA, CA US","datacoverage":0.9609,"id":"GHCND:USC00049035","elevationUnit":"METERS","longitude":-117.3908},{"elevation":1229.9,"mindate":"1932-01-01","maxdate":"2016-01-05","latitude":41.96,"name":"TULELAKE, CA US","datacoverage":0.9729,"id":"GHCND:USC00049053","elevationUnit":"METERS","longitude":-121.4744},{"elevation":602,"mindate":"1935-05-01","maxdate":"2016-01-06","latitude":34.128,"name":"TWENTYNINE PALMS, CA US","datacoverage":0.9869,"id":"GHCND:USC00049099","elevationUnit":"METERS","longitude":-116.0369},{"elevation":419.4,"mindate":"2008-12-01","maxdate":"2016-01-07","latitude":34.12056,"name":"TWENTYNINE PALMS 12 E, CA US","datacoverage":1,"id":"GHCND:USC00049102","elevationUnit":"METERS","longitude":-115.85},{"elevation":404.8,"mindate":"1951-08-09","maxdate":"2016-01-07","latitude":39.1266,"name":"UKIAH 4 WSW, CA US","datacoverage":0.8089,"id":"GHCND:USC00049124","elevationUnit":"METERS","longitude":-123.2719},{"elevation":131.1,"mindate":"1933-03-01","maxdate":"2016-01-06","latitude":34.0697,"name":"U C L A, CA US","datacoverage":0.9811,"id":"GHCND:USC00049152","elevationUnit":"METERS","longitude":-118.4427},{"elevation":103.9,"mindate":"1998-02-01","maxdate":"2016-01-06","latitude":38.1,"name":"VALLEJO, CA US","datacoverage":0.4839,"id":"GHCND:USC00049219","elevationUnit":"METERS","longitude":-122.1869},{"elevation":384,"mindate":"1948-07-01","maxdate":"2016-01-07","latitude":38.60861,"name":"VENADO, CA US","datacoverage":0.2142,"id":"GHCND:USC00049273","elevationUnit":"METERS","longitude":-123.01806},{"elevation":106.7,"mindate":"1895-02-01","maxdate":"2016-01-07","latitude":36.3278,"name":"VISALIA, CA US","datacoverage":0.917,"id":"GHCND:USC00049367","elevationUnit":"METERS","longitude":-119.2994},{"elevation":88.7,"mindate":"1901-01-05","maxdate":"2016-01-06","latitude":35.5892,"name":"WASCO, CA US","datacoverage":0.9541,"id":"GHCND:USC00049452","elevationUnit":"METERS","longitude":-119.352},{"elevation":29,"mindate":"1908-01-01","maxdate":"2016-01-04","latitude":36.9308,"name":"WATSONVILLE WATERWORKS, CA US","datacoverage":0.9249,"id":"GHCND:USC00049473","elevationUnit":"METERS","longitude":-121.7691},{"elevation":627.3,"mindate":"1894-01-01","maxdate":"2016-01-06","latitude":40.7367,"name":"WEAVERVILLE, CA US","datacoverage":0.788,"id":"GHCND:USC00049490","elevationUnit":"METERS","longitude":-122.9404},{"elevation":845.8,"mindate":"1894-02-01","maxdate":"2016-01-05","latitude":38.3775,"name":"WEST POINT, CA US","datacoverage":0.706,"id":"GHCND:USC00049582","elevationUnit":"METERS","longitude":-120.5452},{"elevation":394.7,"mindate":"1960-04-16","maxdate":"2016-01-07","latitude":40.6116,"name":"WHISKEYTOWN RESERVOIR, CA US","datacoverage":0.9707,"id":"GHCND:USC00049621","elevationUnit":"METERS","longitude":-122.528},{"elevation":141.4,"mindate":"1968-09-28","maxdate":"2016-01-06","latitude":40.9466,"name":"WILLOW CREEK 1 NW, CA US","datacoverage":0.8762,"id":"GHCND:USC00049694","elevationUnit":"METERS","longitude":-123.6363},{"elevation":71,"mindate":"1906-10-15","maxdate":"2016-01-06","latitude":39.523,"name":"WILLOWS 6 W, CA US","datacoverage":0.978,"id":"GHCND:USC00049699","elevationUnit":"METERS","longitude":-122.3058},{"elevation":41.1,"mindate":"1906-03-01","maxdate":"2016-01-07","latitude":38.5252,"name":"WINTERS, CA US","datacoverage":0.6797,"id":"GHCND:USC00049742","elevationUnit":"METERS","longitude":-121.9777},{"elevation":240.8,"mindate":"1949-07-01","maxdate":"2016-01-07","latitude":34.1819,"name":"WOODLAND HILLS PIERCE COLLEGE, CA US","datacoverage":0.9972,"id":"GHCND:USC00049785","elevationUnit":"METERS","longitude":-118.5744},{"elevation":1224.7,"mindate":"1905-01-12","maxdate":"2016-01-06","latitude":37.75,"name":"YOSEMITE PARK HDQUARTERS, CA US","datacoverage":0.9284,"id":"GHCND:USC00049855","elevationUnit":"METERS","longitude":-119.5897},{"elevation":800.1,"mindate":"1893-02-01","maxdate":"2016-01-07","latitude":41.7036,"name":"YREKA, CA US","datacoverage":0.8888,"id":"GHCND:USC00049866","elevationUnit":"METERS","longitude":-122.6408},{"elevation":289.3,"mindate":"1998-05-25","maxdate":"2016-01-05","latitude":34.05611,"name":"ONTARIO INTERNATIONAL AIRPORT, CA US","datacoverage":0.9981,"id":"GHCND:USW00003102","elevationUnit":"METERS","longitude":-117.60028},{"elevation":-36,"mindate":"1950-05-12","maxdate":"2016-01-05","latitude":33.62667,"name":"DESERT RESORTS REGIONAL AIRPORT, CA US","datacoverage":0.994,"id":"GHCND:USW00003104","elevationUnit":"METERS","longitude":-116.15944},{"elevation":27.4,"mindate":"1932-01-01","maxdate":"2016-01-06","latitude":33.8016,"name":"TORRANCE AIRPORT, CA US","datacoverage":0.9689,"id":"GHCND:USW00003122","elevationUnit":"METERS","longitude":-118.3419},{"elevation":127.1,"mindate":"1998-02-19","maxdate":"2016-01-05","latitude":32.81583,"name":"SAN DIEGO MONTGOMERY FIELD, CA US","datacoverage":0.9959,"id":"GHCND:USW00003131","elevationUnit":"METERS","longitude":-117.13944},{"elevation":-17.7,"mindate":"1962-02-01","maxdate":"2016-01-05","latitude":32.83417,"name":"IMPERIAL CO AIRPORT, CA US","datacoverage":0.6495,"id":"GHCND:USW00003144","elevationUnit":"METERS","longitude":-115.57861},{"elevation":712.6,"mindate":"1974-04-16","maxdate":"2016-01-05","latitude":34.7411,"name":"LANCASTER WM J FOX FIELD, CA US","datacoverage":0.9915,"id":"GHCND:USW00003159","elevationUnit":"METERS","longitude":-118.2116},{"elevation":805,"mindate":"1998-02-01","maxdate":"2016-01-05","latitude":32.6261,"name":"CAMPO ASOS, CA US","datacoverage":0.971,"id":"GHCND:USW00003164","elevationUnit":"METERS","longitude":-116.4681},{"elevation":29.3,"mindate":"1998-04-01","maxdate":"2016-01-05","latitude":33.87194,"name":"FULLERTON MUNICIPAL AIRPORT, CA US","datacoverage":0.9889,"id":"GHCND:USW00003166","elevationUnit":"METERS","longitude":-117.97889},{"elevation":19.2,"mindate":"1998-04-01","maxdate":"2016-01-05","latitude":33.92278,"name":"HAWTHORNE MUNICIPAL AIRPORT, CA US","datacoverage":0.9686,"id":"GHCND:USW00003167","elevationUnit":"METERS","longitude":-118.33417},{"elevation":245.2,"mindate":"1998-04-01","maxdate":"2016-01-05","latitude":33.95194,"name":"RIVERSIDE MUNICIPAL AIRPORT, CA US","datacoverage":0.984,"id":"GHCND:USW00003171","elevationUnit":"METERS","longitude":-117.43861},{"elevation":100,"mindate":"1998-02-19","maxdate":"2016-01-05","latitude":33.12806,"name":"CARLSBAD MCCLELLAN PALOMAR AIRPORT, CA US","datacoverage":0.998,"id":"GHCND:USW00003177","elevationUnit":"METERS","longitude":-117.27944},{"elevation":157,"mindate":"1997-02-01","maxdate":"2016-01-05","latitude":32.57222,"name":"SAN DIEGO BROWN FIELD, CA US","datacoverage":0.9945,"id":"GHCND:USW00003178","elevationUnit":"METERS","longitude":-116.97944},{"elevation":198.1,"mindate":"1998-04-01","maxdate":"2016-01-05","latitude":33.97528,"name":"CHINO AIRPORT, CA US","datacoverage":0.9954,"id":"GHCND:USW00003179","elevationUnit":"METERS","longitude":-117.63611},{"elevation":432.2,"mindate":"2003-03-27","maxdate":"2016-01-06","latitude":40.6507,"name":"REDDING 12 WNW, CA US","datacoverage":0.9944,"id":"GHCND:USW00004222","elevationUnit":"METERS","longitude":-122.6068},{"elevation":70.7,"mindate":"1961-07-01","maxdate":"2016-01-05","latitude":36.33333,"name":"LEMOORE REEVES NAS, CA US","datacoverage":0.9432,"id":"GHCND:USW00023110","elevationUnit":"METERS","longitude":-119.95},{"elevation":9.4,"mindate":"1943-01-01","maxdate":"2016-01-06","latitude":33.8116,"name":"LONG BEACH DAUGHERTY FIELD, CA US","datacoverage":0.9109,"id":"GHCND:USW00023129","elevationUnit":"METERS","longitude":-118.1463},{"elevation":234.7,"mindate":"1949-01-01","maxdate":"2016-01-05","latitude":34.20972,"name":"VAN NUYS AIRPORT, CA US","datacoverage":0.2974,"id":"GHCND:USW00023130","elevationUnit":"METERS","longitude":-118.48917},{"elevation":23.5,"mindate":"1952-12-09","maxdate":"2016-01-05","latitude":34.21667,"name":"CAMARILLO AIRPORT, CA US","datacoverage":0.5261,"id":"GHCND:USW00023136","elevationUnit":"METERS","longitude":-119.08333},{"elevation":225.9,"mindate":"1998-05-22","maxdate":"2016-01-05","latitude":34.20056,"name":"BURBANK GLENDALE PASADENA AIRPORT, CA US","datacoverage":0.9986,"id":"GHCND:USW00023152","elevationUnit":"METERS","longitude":-118.3575},{"elevation":149,"mindate":"1937-10-01","maxdate":"2016-01-06","latitude":35.4344,"name":"BAKERSFIELD MEADOWS FIELD AIRPORT, CA US","datacoverage":1,"id":"GHCND:USW00023155","elevationUnit":"METERS","longitude":-119.0542},{"elevation":1250.3,"mindate":"1895-01-01","maxdate":"2016-01-06","latitude":37.3711,"name":"BISHOP AIRPORT, CA US","datacoverage":0.726,"id":"GHCND:USW00023157","elevationUnit":"METERS","longitude":-118.358},{"elevation":120.4,"mindate":"1948-07-01","maxdate":"2016-01-05","latitude":33.6186,"name":"BLYTHE AIRPORT, CA US","datacoverage":0.9934,"id":"GHCND:USW00023158","elevationUnit":"METERS","longitude":-114.7142},{"elevation":584.3,"mindate":"1943-12-01","maxdate":"2016-01-05","latitude":34.8536,"name":"BARSTOW DAGGETT AIRPORT, CA US","datacoverage":0.9989,"id":"GHCND:USW00023161","elevationUnit":"METERS","longitude":-116.7858},{"elevation":29.6,"mindate":"1944-01-01","maxdate":"2016-01-06","latitude":33.938,"name":"LOS ANGELES INTERNATIONAL AIRPORT, CA US","datacoverage":0.9919,"id":"GHCND:USW00023174","elevationUnit":"METERS","longitude":-118.3888},{"elevation":271.3,"mindate":"1941-01-01","maxdate":"2016-01-04","latitude":34.7675,"name":"NEEDLES AIRPORT, CA US","datacoverage":0.9939,"id":"GHCND:USW00023179","elevationUnit":"METERS","longitude":-114.6188},{"elevation":769.2,"mindate":"1934-01-02","maxdate":"2016-01-05","latitude":34.62944,"name":"PALMDALE AIRPORT, CA US","datacoverage":0.6258,"id":"GHCND:USW00023182","elevationUnit":"METERS","longitude":-118.08361},{"elevation":1374.6,"mindate":"1948-01-01","maxdate":"2016-01-05","latitude":34.7436,"name":"SANDBERG, CA US","datacoverage":0.9802,"id":"GHCND:USW00023187","elevationUnit":"METERS","longitude":-118.7242},{"elevation":4.6,"mindate":"1939-07-01","maxdate":"2016-01-06","latitude":32.7336,"name":"SAN DIEGO LINDBERGH FIELD, CA US","datacoverage":0.999,"id":"GHCND:USW00023188","elevationUnit":"METERS","longitude":-117.1831},{"elevation":2.7,"mindate":"1941-01-02","maxdate":"2016-01-05","latitude":34.4258,"name":"SANTA BARBARA MUNICIPAL AIRPORT, CA US","datacoverage":0.9632,"id":"GHCND:USW00023190","elevationUnit":"METERS","longitude":-119.8425},{"elevation":488.3,"mindate":"1948-01-01","maxdate":"2016-01-05","latitude":33.405,"name":"AVALON CATALINA AIRPORT, CA US","datacoverage":0.3847,"id":"GHCND:USW00023191","elevationUnit":"METERS","longitude":-118.41583},{"elevation":-12.8,"mindate":"1945-02-01","maxdate":"2016-01-04","latitude":32.81667,"name":"EL CENTRO NAF, CA US","datacoverage":0.3784,"id":"GHCND:USW00023199","elevationUnit":"METERS","longitude":-115.68333},{"elevation":18,"mindate":"1947-05-24","maxdate":"2016-01-07","latitude":38.26667,"name":"TRAVIS FIELD AFB, CA US","datacoverage":0.4091,"id":"GHCND:USW00023202","elevationUnit":"METERS","longitude":-121.93333},{"elevation":34.7,"mindate":"1998-06-08","maxdate":"2016-01-05","latitude":38.5038,"name":"SANTA ROSA SONOMA CO AIRPORT, CA US","datacoverage":0.9992,"id":"GHCND:USW00023213","elevationUnit":"METERS","longitude":-122.8102},{"elevation":1608.1,"mindate":"1940-03-01","maxdate":"2016-01-06","latitude":39.2774,"name":"BLUE CANYON AIRPORT, CA US","datacoverage":0.8875,"id":"GHCND:USW00023225","elevationUnit":"METERS","longitude":-120.7102},{"elevation":1.8,"mindate":"1948-01-01","maxdate":"2016-01-05","latitude":37.72139,"name":"OAKLAND METROPOLITAN INTERNATIONAL AIRPORT, CA US","datacoverage":0.7657,"id":"GHCND:USW00023230","elevationUnit":"METERS","longitude":-122.22083},{"elevation":4.6,"mindate":"1941-11-10","maxdate":"2016-01-06","latitude":38.5069,"name":"SACRAMENTO EXECUTIVE AIRPORT, CA US","datacoverage":0.9568,"id":"GHCND:USW00023232","elevationUnit":"METERS","longitude":-121.495},{"elevation":22.6,"mindate":"1878-02-01","maxdate":"2016-01-06","latitude":36.6636,"name":"SALINAS MUNICIPAL AIRPORT, CA US","datacoverage":0.6101,"id":"GHCND:USW00023233","elevationUnit":"METERS","longitude":-121.6081},{"elevation":2.4,"mindate":"1945-07-01","maxdate":"2016-01-06","latitude":37.6197,"name":"SAN FRANCISCO INTERNATIONAL AIRPORT, CA US","datacoverage":0.9984,"id":"GHCND:USW00023234","elevationUnit":"METERS","longitude":-122.3647},{"elevation":7.9,"mindate":"1941-02-20","maxdate":"2016-01-06","latitude":37.8891,"name":"STOCKTON METROPOLITAN AIRPORT, CA US","datacoverage":0.8979,"id":"GHCND:USW00023237","elevationUnit":"METERS","longitude":-121.2258},{"elevation":11.9,"mindate":"1945-03-01","maxdate":"2016-01-05","latitude":37.40583,"name":"MOFFETT FEDERAL AIRFIELD, CA US","datacoverage":0.945,"id":"GHCND:USW00023244","elevationUnit":"METERS","longitude":-122.04806},{"elevation":5.5,"mindate":"1999-06-06","maxdate":"2016-01-06","latitude":37.9917,"name":"CONCORD BUCHANAN FIELD, CA US","datacoverage":0.9996,"id":"GHCND:USW00023254","elevationUnit":"METERS","longitude":-122.055},{"elevation":46.3,"mindate":"1998-08-01","maxdate":"2016-01-05","latitude":37.28472,"name":"MERCED MUNICIPAL AIRPORT, CA US","datacoverage":0.9972,"id":"GHCND:USW00023257","elevationUnit":"METERS","longitude":-120.51278},{"elevation":22.3,"mindate":"1906-03-01","maxdate":"2016-01-05","latitude":37.6241,"name":"MODESTO CITY CO AIRPORT, CA US","datacoverage":0.8863,"id":"GHCND:USW00023258","elevationUnit":"METERS","longitude":-120.9505},{"elevation":50.3,"mindate":"1968-12-01","maxdate":"2016-01-05","latitude":36.58806,"name":"MONTEREY PENINSUL AIRPORT, CA US","datacoverage":0.5489,"id":"GHCND:USW00023259","elevationUnit":"METERS","longitude":-121.84528},{"elevation":11.6,"mindate":"1877-07-11","maxdate":"2016-01-04","latitude":38.5552,"name":"SACRAMENTO 5 ESE, CA US","datacoverage":0.9982,"id":"GHCND:USW00023271","elevationUnit":"METERS","longitude":-121.4183},{"elevation":45.7,"mindate":"1921-01-01","maxdate":"2016-01-04","latitude":37.7705,"name":"SAN FRANCISCO DOWNTOWN, CA US","datacoverage":0.9999,"id":"GHCND:USW00023272","elevationUnit":"METERS","longitude":-122.4269},{"elevation":73.8,"mindate":"1948-01-01","maxdate":"2016-01-06","latitude":34.8994,"name":"SANTA MARIA PUBLIC AIRPORT, CA US","datacoverage":0.9998,"id":"GHCND:USW00023273","elevationUnit":"METERS","longitude":-120.4486},{"elevation":183.2,"mindate":"1949-09-12","maxdate":"2016-01-05","latitude":39.12583,"name":"UKIAH MUNICIPAL AIRPORT, CA US","datacoverage":0.2378,"id":"GHCND:USW00023275","elevationUnit":"METERS","longitude":-123.20083},{"elevation":48.8,"mindate":"1998-07-19","maxdate":"2016-01-05","latitude":36.93583,"name":"WATSONVILLE MUNICIPAL AIRPORT, CA US","datacoverage":0.9945,"id":"GHCND:USW00023277","elevationUnit":"METERS","longitude":-121.78861},{"elevation":119.8,"mindate":"1998-04-06","maxdate":"2016-01-05","latitude":37.6927,"name":"LIVERMORE MUNICIPAL AIRPORT, CA US","datacoverage":0.9994,"id":"GHCND:USW00023285","elevationUnit":"METERS","longitude":-121.8144},{"elevation":15.5,"mindate":"1998-07-04","maxdate":"2016-01-05","latitude":37.3591,"name":"SAN JOSE, CA US","datacoverage":0.9995,"id":"GHCND:USW00023293","elevationUnit":"METERS","longitude":-121.924},{"elevation":6.1,"mindate":"1941-12-01","maxdate":"2016-01-05","latitude":40.8097,"name":"EUREKA WEATHER FORECAST OFFICE WOODLEY ISLAND, CA US","datacoverage":1,"id":"GHCND:USW00024213","elevationUnit":"METERS","longitude":-124.1602},{"elevation":1077.5,"mindate":"1996-08-01","maxdate":"2016-01-05","latitude":41.3325,"name":"MOUNT SHASTA, CA US","datacoverage":0.9962,"id":"GHCND:USW00024215","elevationUnit":"METERS","longitude":-122.33278},{"elevation":107.6,"mindate":"1892-01-01","maxdate":"2016-01-06","latitude":40.1519,"name":"RED BLUFF MUNICIPAL AIRPORT, CA US","datacoverage":0.9618,"id":"GHCND:USW00024216","elevationUnit":"METERS","longitude":-122.2536},{"elevation":151.5,"mindate":"1986-09-01","maxdate":"2016-01-06","latitude":40.5175,"name":"REDDING MUNICIPAL AIRPORT, CA US","datacoverage":0.9998,"id":"GHCND:USW00024257","elevationUnit":"METERS","longitude":-122.2986},{"elevation":808,"mindate":"1948-07-01","maxdate":"2016-01-05","latitude":41.78139,"name":"MONTAGUE SISKIYOU AIRPORT, CA US","datacoverage":0.2851,"id":"GHCND:USW00024259","elevationUnit":"METERS","longitude":-122.46806},{"elevation":61,"mindate":"1992-04-01","maxdate":"2016-01-05","latitude":40.97806,"name":"ARCATA EUREKA AIRPORT, CA US","datacoverage":0.9942,"id":"GHCND:USW00024283","elevationUnit":"METERS","longitude":-124.10861},{"elevation":17.1,"mindate":"1949-10-15","maxdate":"2016-01-05","latitude":41.78028,"name":"CRESCENT CITY MCNAMARA AIRPORT, CA US","datacoverage":0.2855,"id":"GHCND:USW00024286","elevationUnit":"METERS","longitude":-124.23667},{"elevation":75.9,"mindate":"1998-02-19","maxdate":"2016-01-05","latitude":36.31889,"name":"HANFORD MUNICIPAL AIRPORT, CA US","datacoverage":0.9845,"id":"GHCND:USW00053119","elevationUnit":"METERS","longitude":-119.62889},{"elevation":424.6,"mindate":"1998-04-16","maxdate":"2016-01-05","latitude":33.0375,"name":"RAMONA AIRPORT, CA US","datacoverage":0.9897,"id":"GHCND:USW00053120","elevationUnit":"METERS","longitude":-116.91583},{"elevation":8.5,"mindate":"1999-05-11","maxdate":"2016-01-05","latitude":33.21944,"name":"OCEANSIDE MUNICIPAL AIRPORT, CA US","datacoverage":0.9964,"id":"GHCND:USW00053121","elevationUnit":"METERS","longitude":-117.34944},{"elevation":25.6,"mindate":"2004-05-06","maxdate":"2016-01-06","latitude":36.602,"name":"STOVEPIPE WELLS 1 SW, CA US","datacoverage":0.9941,"id":"GHCND:USW00053139","elevationUnit":"METERS","longitude":-117.1449},{"elevation":695.9,"mindate":"2006-05-01","maxdate":"2016-01-04","latitude":34.98833,"name":"EDWARDS AFB NORTH AUXILIARY AIRFIELD, CA US","datacoverage":0.737,"id":"GHCND:USW00053144","elevationUnit":"METERS","longitude":-117.86472},{"elevation":2017.8,"mindate":"2007-09-29","maxdate":"2016-01-06","latitude":37.7592,"name":"YOSEMITE VILLAGE 12 W, CA US","datacoverage":0.997,"id":"GHCND:USW00053150","elevationUnit":"METERS","longitude":-119.8208},{"elevation":347.5,"mindate":"2008-05-02","maxdate":"2016-01-06","latitude":33.4392,"name":"FALLBROOK 5 NE, CA US","datacoverage":0.9979,"id":"GHCND:USW00053151","elevationUnit":"METERS","longitude":-117.1904},{"elevation":5.5,"mindate":"2008-08-15","maxdate":"2016-01-06","latitude":34.4141,"name":"SANTA BARBARA 11 W, CA US","datacoverage":0.9967,"id":"GHCND:USW00053152","elevationUnit":"METERS","longitude":-119.8796},{"elevation":145.4,"mindate":"1947-07-01","maxdate":"2016-01-05","latitude":32.86667,"name":"SAN DIEGO MIRAMAR NAS, CA US","datacoverage":0.9323,"id":"GHCND:USW00093107","elevationUnit":"METERS","longitude":-117.13333},{"elevation":11,"mindate":"1998-03-01","maxdate":"2016-01-05","latitude":34.20083,"name":"OXNARD VENTURA CO AIRPORT, CA US","datacoverage":0.9969,"id":"GHCND:USW00093110","elevationUnit":"METERS","longitude":-119.20694},{"elevation":7.9,"mindate":"1945-04-01","maxdate":"2016-01-05","latitude":32.7,"name":"NORTH ISLAND NAS, CA US","datacoverage":0.9497,"id":"GHCND:USW00093112","elevationUnit":"METERS","longitude":-117.2},{"elevation":7.3,"mindate":"1945-04-01","maxdate":"2016-01-04","latitude":32.56667,"name":"IMPERIAL BEACH REAM FIELD NAS, CA US","datacoverage":0.6998,"id":"GHCND:USW00093115","elevationUnit":"METERS","longitude":-117.11667},{"elevation":54.6,"mindate":"1906-04-01","maxdate":"2016-01-05","latitude":34.0236,"name":"LOS ANGELES DOWNTOWN USC, CA US","datacoverage":0.9278,"id":"GHCND:USW00093134","elevationUnit":"METERS","longitude":-118.2911},{"elevation":124.7,"mindate":"1998-02-19","maxdate":"2016-01-05","latitude":33.8222,"name":"PALM SPRINGS REGIONAL AIRPORT, CA US","datacoverage":0.9937,"id":"GHCND:USW00093138","elevationUnit":"METERS","longitude":-116.5043},{"elevation":16.5,"mindate":"1999-02-12","maxdate":"2016-01-05","latitude":33.68,"name":"SANTA ANA JOHN WAYNE AIRPORT, CA US","datacoverage":0.9969,"id":"GHCND:USW00093184","elevationUnit":"METERS","longitude":-117.86639},{"elevation":101.5,"mindate":"1941-12-04","maxdate":"2016-01-06","latitude":36.78,"name":"FRESNO YOSEMITE INTERNATIONAL AIRPORT, CA US","datacoverage":0.918,"id":"GHCND:USW00093193","elevationUnit":"METERS","longitude":-119.7194},{"elevation":53,"mindate":"1998-04-01","maxdate":"2016-01-05","latitude":34.01583,"name":"SANTA MONICA MUNICIPAL AIRPORT, CA US","datacoverage":0.8599,"id":"GHCND:USW00093197","elevationUnit":"METERS","longitude":-118.45139},{"elevation":18.9,"mindate":"2000-10-01","maxdate":"2016-01-05","latitude":39.1019,"name":"MARYSVILLE YUBA CO AIRPORT, CA US","datacoverage":0.9978,"id":"GHCND:USW00093205","elevationUnit":"METERS","longitude":-121.5677},{"elevation":61,"mindate":"1998-04-06","maxdate":"2016-01-05","latitude":35.23722,"name":"SAN LUIS OBISPO MCCHESNEY FIELD, CA US","datacoverage":0.9983,"id":"GHCND:USW00093206","elevationUnit":"METERS","longitude":-120.64139},{"elevation":246.9,"mindate":"1948-07-01","maxdate":"2016-01-05","latitude":35.6697,"name":"PASO ROBLES MUNICIPAL AIRPORT, CA US","datacoverage":0.9998,"id":"GHCND:USW00093209","elevationUnit":"METERS","longitude":-120.6283},{"elevation":57.9,"mindate":"1998-06-13","maxdate":"2016-01-05","latitude":39.49,"name":"OROVILLE MUNICIPAL AIRPORT, CA US","datacoverage":0.9936,"id":"GHCND:USW00093210","elevationUnit":"METERS","longitude":-121.61833},{"elevation":7,"mindate":"1998-05-21","maxdate":"2016-01-05","latitude":38.69556,"name":"SACRAMENTO METROPOLITAN AIRPORT, CA US","datacoverage":0.9969,"id":"GHCND:USW00093225","elevationUnit":"METERS","longitude":-121.58972},{"elevation":4.3,"mindate":"1998-05-22","maxdate":"2016-01-05","latitude":38.2102,"name":"NAPA CO AIRPORT, CA US","datacoverage":0.9997,"id":"GHCND:USW00093227","elevationUnit":"METERS","longitude":-122.2847},{"elevation":13.1,"mindate":"1998-09-19","maxdate":"2016-01-06","latitude":37.6542,"name":"HAYWARD AIR TERMINAL, CA US","datacoverage":0.9996,"id":"GHCND:USW00093228","elevationUnit":"METERS","longitude":-122.115},{"elevation":1924.5,"mindate":"1968-05-01","maxdate":"2016-01-06","latitude":38.8983,"name":"SOUTH LAKE TAHOE AIRPORT, CA US","datacoverage":0.9671,"id":"GHCND:USW00093230","elevationUnit":"METERS","longitude":-119.9947},{"elevation":33.2,"mindate":"1998-04-06","maxdate":"2016-01-05","latitude":38.3775,"name":"VACAVILLE NUT TREE AIRPORT, CA US","datacoverage":0.9861,"id":"GHCND:USW00093241","elevationUnit":"METERS","longitude":-121.9575},{"elevation":77.1,"mindate":"1998-09-01","maxdate":"2016-01-05","latitude":36.98778,"name":"MADERA MUNICIPAL AIRPORT, CA US","datacoverage":0.9943,"id":"GHCND:USW00093242","elevationUnit":"METERS","longitude":-120.11056},{"elevation":23.8,"mindate":"2004-03-26","maxdate":"2016-01-06","latitude":37.2381,"name":"MERCED 23 WSW, CA US","datacoverage":0.9951,"id":"GHCND:USW00093243","elevationUnit":"METERS","longitude":-120.8825},{"elevation":19.2,"mindate":"2008-06-15","maxdate":"2016-01-06","latitude":38.3208,"name":"BODEGA 6 WSW, CA US","datacoverage":0.9942,"id":"GHCND:USW00093245","elevationUnit":"METERS","longitude":-123.0747},{"elevation":1333.5,"mindate":"1998-06-01","maxdate":"2016-01-05","latitude":41.49139,"name":"ALTURAS MUNICIPAL AIRPORT, CA US","datacoverage":0.9942,"id":"GHCND:USW00094299","elevationUnit":"METERS","longitude":-120.56444}]}